<?xml version="1.0" encoding="UTF-8"?>
<kml xmlns="http://www.opengis.net/kml/2.2">
  <Document>
   
    <description/>
    <Style id="icon-1899-0288D1-nodesc-normal">
      <IconStyle>
        <scale>1</scale>
        <Icon>
          <href>images/icon-1.png</href>
        </Icon>
        <hotSpot x="32" xunits="pixels" y="64" yunits="insetPixels"/>
      </IconStyle>
      <LabelStyle>
        <scale>0</scale>
      </LabelStyle>
      <BalloonStyle>
        <text><![CDATA[<h3>$[name]</h3>]]></text>
      </BalloonStyle>
    </Style>
    <Style id="icon-1899-0288D1-nodesc-highlight">
      <IconStyle>
        <scale>1</scale>
        <Icon>
          <href>images/icon-1.png</href>
        </Icon>
        <hotSpot x="32" xunits="pixels" y="64" yunits="insetPixels"/>
      </IconStyle>
      <LabelStyle>
        <scale>1</scale>
      </LabelStyle>
      <BalloonStyle>
        <text><![CDATA[<h3>$[name]</h3>]]></text>
      </BalloonStyle>
    </Style>
    <StyleMap id="icon-1899-0288D1-nodesc">
      <Pair>
        <key>normal</key>
        <styleUrl>#icon-1899-0288D1-nodesc-normal</styleUrl>
      </Pair>
      <Pair>
        <key>highlight</key>
        <styleUrl>#icon-1899-0288D1-nodesc-highlight</styleUrl>
      </Pair>
    </StyleMap>
    <Folder>
     
      <Placemark>
        <name>Place du Trocadero</name>
        <styleUrl>#icon-1899-0288D1-nodesc</styleUrl>
        <Point>
          <coordinates>
            2.28717860000006,48.8629697,0
          </coordinates>
        </Point>
      </Placemark>
      <Placemark>
        <name>Hotel de Soubise</name>
        <styleUrl>#icon-1899-0288D1-nodesc</styleUrl>
        <Point>
          <coordinates>
            2.35782629999994,48.8604454,0
          </coordinates>
        </Point>
      </Placemark>
      <Placemark>
        <name>Paris-Walks - The Landmarks of Paris tower</name>
        <styleUrl>#icon-1899-0288D1-nodesc</styleUrl>
        <Point>
          <coordinates>
            2.35078569999996,48.8650948,0
          </coordinates>
        </Point>
      </Placemark>
      <Placemark>
        <name>Place Dauphine</name>
        <styleUrl>#icon-1899-0288D1-nodesc</styleUrl>
        <Point>
          <coordinates>
            2.34250829999996,48.8565422,0
          </coordinates>
        </Point>
      </Placemark>
      <Placemark>
        <name>Le Lac du Palais Garnier</name>
        <styleUrl>#icon-1899-0288D1-nodesc</styleUrl>
        <Point>
          <coordinates>
            2.33156919999999,48.8723578,0
          </coordinates>
        </Point>
      </Placemark>
      <Placemark>
        <name>Colonne Vendôme</name>
        <styleUrl>#icon-1899-0288D1-nodesc</styleUrl>
        <Point>
          <coordinates>
            2.32944450000002,48.8674729,0
          </coordinates>
        </Point>
      </Placemark>
      <Placemark>
        <name>Hôtel Lambert</name>
        <styleUrl>#icon-1899-0288D1-nodesc</styleUrl>
        <Point>
          <coordinates>
            2.35979280000004,48.8508879,0
          </coordinates>
        </Point>
      </Placemark>
      <Placemark>
        <name>Hotel Salm</name>
        <styleUrl>#icon-1899-0288D1-nodesc</styleUrl>
        <Point>
          <coordinates>
            2.32433620000006,48.8603134,0
          </coordinates>
        </Point>
      </Placemark>
      <Placemark>
        <name>Hôtel de Sens</name>
        <styleUrl>#icon-1899-0288D1-nodesc</styleUrl>
        <Point>
          <coordinates>
            2.35914819999994,48.8534298,0
          </coordinates>
        </Point>
      </Placemark>
      <Placemark>
        <name><![CDATA[Grand Hotel d'Estrees]]></name>
        <styleUrl>#icon-1899-0288D1-nodesc</styleUrl>
        <Point>
          <coordinates>
            2.32285679999995,48.8556611,0
          </coordinates>
        </Point>
      </Placemark>
      <Placemark>
        <name>The Centre Pompidou</name>
        <styleUrl>#icon-1899-0288D1-nodesc</styleUrl>
        <Point>
          <coordinates>
            2.35224500000004,48.860642,0
          </coordinates>
        </Point>
      </Placemark>
      <Placemark>
        <name>Louvre Museum</name>
        <styleUrl>#icon-1899-0288D1-nodesc</styleUrl>
        <Point>
          <coordinates>
            2.33764399999995,48.8606111,0
          </coordinates>
        </Point>
      </Placemark>
      <Placemark>
        <name><![CDATA[Musée d'Orsay]]></name>
        <styleUrl>#icon-1899-0288D1-nodesc</styleUrl>
        <Point>
          <coordinates>
            2.32656139999995,48.8599614,0
          </coordinates>
        </Point>
      </Placemark>
      <Placemark>
        <name>Quai Branly Museum</name>
        <styleUrl>#icon-1899-0288D1-nodesc</styleUrl>
        <Point>
          <coordinates>
            2.29789400000004,48.8608889,0
          </coordinates>
        </Point>
      </Placemark>
      <Placemark>
        <name>Orangerie Museum</name>
        <styleUrl>#icon-1899-0288D1-nodesc</styleUrl>
        <Point>
          <coordinates>
            2.32267239999999,48.8637884,0
          </coordinates>
        </Point>
      </Placemark>
      <Placemark>
        <name>Rodin Museum</name>
        <styleUrl>#icon-1899-0288D1-nodesc</styleUrl>
        <Point>
          <coordinates>
            2.31583539999997,48.8553072,0
          </coordinates>
        </Point>
      </Placemark>
      <Placemark>
        <name>Petit Palais</name>
        <styleUrl>#icon-1899-0288D1-nodesc</styleUrl>
        <Point>
          <coordinates>
            2.31458959999998,48.8660479,0
          </coordinates>
        </Point>
      </Placemark>
      <Placemark>
        <name>Musée Jacquemart-André</name>
        <styleUrl>#icon-1899-0288D1-nodesc</styleUrl>
        <Point>
          <coordinates>
            2.31053150000002,48.8754479,0
          </coordinates>
        </Point>
      </Placemark>
      <Placemark>
        <name>Paris Museum of Modern Art</name>
        <styleUrl>#icon-1899-0288D1-nodesc</styleUrl>
        <Point>
          <coordinates>
            2.29782079999995,48.8643421,0
          </coordinates>
        </Point>
      </Placemark>
      <Placemark>
        <name>Picasso National Museum</name>
        <styleUrl>#icon-1899-0288D1-nodesc</styleUrl>
        <Point>
          <coordinates>
            2.36228499999993,48.8598775,0
          </coordinates>
        </Point>
      </Placemark>
      <Placemark>
        <name>Montmartre un Village</name>
        <styleUrl>#icon-1899-0288D1-nodesc</styleUrl>
        <Point>
          <coordinates>
            2.3405788,48.8855867,0
          </coordinates>
        </Point>
      </Placemark>
      <Placemark>
        <name>The Paris Pass</name>
        <styleUrl>#icon-1899-0288D1-nodesc</styleUrl>
        <Point>
          <coordinates>
            2.33433530000002,48.8652899,0
          </coordinates>
        </Point>
      </Placemark>
      <Placemark>
        <name>Sainte-Chapelle</name>
        <styleUrl>#icon-1899-0288D1-nodesc</styleUrl>
        <Point>
          <coordinates>
            2.34498699999995,48.85542,0
          </coordinates>
        </Point>
      </Placemark>
      <Placemark>
        <name>Place de la Concorde</name>
        <styleUrl>#icon-1899-0288D1-nodesc</styleUrl>
        <Point>
          <coordinates>
            2.32123569999999,48.8656331,0
          </coordinates>
        </Point>
      </Placemark>
      <Placemark>
        <name>Place Vendôme</name>
        <styleUrl>#icon-1899-0288D1-nodesc</styleUrl>
        <Point>
          <coordinates>
            2.32943249999994,48.867471,0
          </coordinates>
        </Point>
      </Placemark>
      <Placemark>
        <name>Statue of Joan of Arc Paris</name>
        <styleUrl>#icon-1899-0288D1-nodesc</styleUrl>
        <Point>
          <coordinates>
            2.33219699999995,48.8638821,0
          </coordinates>
        </Point>
      </Placemark>
      <Placemark>
        <name>Cathédrale Notre-Dame de Paris</name>
        <styleUrl>#icon-1899-0288D1-nodesc</styleUrl>
        <Point>
          <coordinates>
            2.34990210000001,48.8529682,0
          </coordinates>
        </Point>
      </Placemark>
      <Placemark>
        <name>Catacombs of Paris</name>
        <styleUrl>#icon-1899-0288D1-nodesc</styleUrl>
        <Point>
          <coordinates>
            2.3324222,48.8338325,0
          </coordinates>
        </Point>
      </Placemark>
      <Placemark>
        <name>Eiffel Tower</name>
        <styleUrl>#icon-1899-0288D1-nodesc</styleUrl>
        <Point>
          <coordinates>
            2.29448130000003,48.8583701,0
          </coordinates>
        </Point>
      </Placemark>
    </Folder>
  </Document>
</kml>
